[
    {
        "uid": 12880,
        "lat": 12.1348,
        "lon": 15.0557,
        "aqi": 117,
        "recorded_at": "2023-09-07T19:00:00Z",
        "station_name": "N'Djamena US Embassy, Chad",
        "city": "N'Djamena",
        "country": "Chad",
        "image_filepath": "images\\_Generic.jpg",
        "auto_generated": 0,
        "income_group": "Low income",
        "lending_category": "IDA"
    },
    {
        "uid": 431,
        "lat": -33.464142,
        "lon": -70.660797,
        "aqi": 112,
        "recorded_at": "2023-09-06T17:00:00Z",
        "station_name": "Parque O'Higgins, Chile",
        "city": "Santiago",
        "country": "Chile",
        "image_filepath": "images\\_Generic.jpg",
        "auto_generated": 0,
        "income_group": "High income",
        "lending_category": "IBRD"
    },
    {
        "uid": 12763,
        "lat": 48.8621,
        "lon": 2.34462,
        "aqi": 108,
        "recorded_at": "2023-09-07T17:00:00Z",
        "station_name": "Paris 1er Les Halles, Paris",
        "city": "Paris",
        "country": "France",
        "image_filepath": "images\\_Generic.jpg",
        "auto_generated": 0,
        "income_group": "High income",
        "lending_category": null
    },
    {
        "uid": 3307,
        "lat": 40.7143528,
        "lon": -74.0059731,
        "aqi": 80,
        "recorded_at": "2023-09-07T18:00:00Z",
        "station_name": "New York, USA",
        "city": "New York",
        "country": "United States",
        "image_filepath": "images\\_Generic.jpg",
        "auto_generated": 0,
        "income_group": "High income",
        "lending_category": null
    },
    {
        "uid": -409114,
        "lat": 45.556944,
        "lon": -73.6725,
        "aqi": 76,
        "recorded_at": "2023-09-07T10:09:38Z",
        "station_name": "Montr\u00e9al, Ahuntsic Live Meteo Station",
        "city": "Montreal",
        "country": "Canada",
        "image_filepath": "images\\_Generic.jpg",
        "auto_generated": 0,
        "income_group": "High income",
        "lending_category": null
    },
    {
        "uid": -399805,
        "lat": 49.270267,
        "lon": -123.10738,
        "aqi": 52,
        "recorded_at": "2023-09-07T16:09:56Z",
        "station_name": "AQSU-VCH-OlympicVillage",
        "city": "Vancouver",
        "country": "Canada",
        "image_filepath": "images\\_Generic.jpg",
        "auto_generated": 0,
        "income_group": "High income",
        "lending_category": null
    },
    {
        "uid": 2701,
        "lat": 47.3775,
        "lon": 8.5305555555556,
        "aqi": 66,
        "recorded_at": "2023-09-07T14:00:00Z",
        "station_name": "Zurich Kaserne, Switzerland",
        "city": "Zurich",
        "country": "Switzerland",
        "image_filepath": "images\\_Generic.jpg",
        "auto_generated": 0,
        "income_group": "High income",
        "lending_category": null
    },
    {
        "uid": 11765,
        "lat": 31.560078,
        "lon": 74.33589,
        "aqi": 175,
        "recorded_at": "2023-09-07T19:00:00Z",
        "station_name": "Lahore US Embassy, Pakistan",
        "city": "Lahore",
        "country": "Pakistan",
        "image_filepath": "images\\_Generic.jpg",
        "auto_generated": 0,
        "income_group": "Lower middle income",
        "lending_category": "Blend"
    },
    {
        "uid": 5273,
        "lat": 21.30383819,
        "lon": -157.8711711,
        "aqi": 12,
        "recorded_at": "2023-09-07T13:00:00Z",
        "station_name": "Sand Island, Hawaii, USA",
        "city": "Honolulu",
        "country": "United States",
        "image_filepath": "images\\_Generic.jpg",
        "auto_generated": 0,
        "income_group": "High income",
        "lending_category": null
    },
    {
        "uid": 13449,
        "lat": 9.0416479110718,
        "lon": 7.4773740768433,
        "aqi": 64,
        "recorded_at": "2023-09-07T19:00:00Z",
        "station_name": "Abuja US Embassy, Nigeria",
        "city": "Abuja",
        "country": "Nigeria",
        "image_filepath": "images\\_Generic.jpg",
        "auto_generated": 0,
        "income_group": "Lower middle income",
        "lending_category": "Blend"
    },
    {
        "uid": 11773,
        "lat": 19.34561,
        "lon": -99.009381,
        "aqi": 114,
        "recorded_at": "2023-09-06T19:00:00Z",
        "station_name": "Santiago Acahualtepec, M\u00e9xico, Mexico",
        "city": "Mexico City",
        "country": "Mexico",
        "image_filepath": "images\\_Generic.jpg",
        "auto_generated": 0,
        "income_group": "Upper middle income",
        "lending_category": "IBRD"
    },
    {
        "uid": -252511,
        "lat": 43.711113,
        "lon": -79.54357,
        "aqi": 123,
        "recorded_at": "2023-09-07T20:03:41Z",
        "station_name": "AQSU-401Roadside-3",
        "city": "Toronto",
        "country": "Canada",
        "image_filepath": "images\\_Generic.jpg",
        "auto_generated": 0,
        "income_group": "High income",
        "lending_category": null
    },
    {
        "uid": -398941,
        "lat": 34.22320053,
        "lon": -118.408122,
        "aqi": 74,
        "recorded_at": "2023-09-07T11:00:00Z",
        "station_name": "Byrd MS (8080)",
        "city": "Los Angeles",
        "country": "United States",
        "image_filepath": "images\\_Generic.jpg",
        "auto_generated": 0,
        "income_group": "High income",
        "lending_category": null
    },
    {
        "uid": 8648,
        "lat": -6.236704,
        "lon": 106.79324,
        "aqi": 152,
        "recorded_at": "2023-09-07T06:00:00Z",
        "station_name": "Jakarta South (US Consulate), Indonesia",
        "city": "Special Capital Region of Jakarta",
        "country": "Indonesia",
        "image_filepath": "images\\_Generic.jpg",
        "auto_generated": 0,
        "income_group": "Upper middle income",
        "lending_category": "IBRD"
    },
    {
        "uid": 4919,
        "lat": 61.4991,
        "lon": 23.80221,
        "aqi": 19,
        "recorded_at": "2023-09-07T19:00:00Z",
        "station_name": "Kaleva, Tampere, Finland",
        "city": "Tampere",
        "country": "Finland",
        "image_filepath": "images\\_Generic.jpg",
        "auto_generated": 0,
        "income_group": "High income",
        "lending_category": null
    }
]