[
    {
        "uid": 3307,
        "lat": 40.7143528,
        "lon": -74.0059731,
        "aqi": 41,
        "recorded_at": "2024-01-22T03:00:00Z",
        "station_name": "New York, USA",
        "city": "New York",
        "country": "United States",
        "image_filepath": "images\\_Generic.jpg",
        "auto_generated": 0,
        "income_group": "High income",
        "lending_category": null
    },
    {
        "uid": -4621,
        "lat": 34.059803,
        "lon": -118.286224,
        "aqi": 62,
        "recorded_at": "2024-01-22T00:53:01Z",
        "station_name": "CCA 7th and Magnolia",
        "city": "Los Angeles",
        "country": "United States",
        "image_filepath": "images\\_Generic.jpg",
        "auto_generated": 0,
        "income_group": "High income",
        "lending_category": null
    },
    {
        "uid": 431,
        "lat": -33.464142,
        "lon": -70.660797,
        "aqi": 114,
        "recorded_at": "2024-01-20T12:00:00Z",
        "station_name": "Parque O'Higgins, Chile",
        "city": "Santiago",
        "country": "Chile",
        "image_filepath": "images\\_Generic.jpg",
        "auto_generated": 0,
        "income_group": "High income",
        "lending_category": "IBRD"
    },
    {
        "uid": 13449,
        "lat": 9.0416479110718,
        "lon": 7.4773740768433,
        "aqi": 141,
        "recorded_at": "2024-01-22T03:00:00Z",
        "station_name": "Abuja US Embassy, Nigeria",
        "city": "Abuja",
        "country": "Nigeria",
        "image_filepath": "images\\_Generic.jpg",
        "auto_generated": 0,
        "income_group": "Lower middle income",
        "lending_category": "Blend"
    },
    {
        "uid": 12880,
        "lat": 12.1348,
        "lon": 15.0557,
        "aqi": 74,
        "recorded_at": "2024-01-22T03:00:00Z",
        "station_name": "N'Djamena US Embassy, Chad",
        "city": "N'Djamena",
        "country": "Chad",
        "image_filepath": "images\\_Generic.jpg",
        "auto_generated": 0,
        "income_group": "Low income",
        "lending_category": "IDA"
    },
    {
        "uid": -410074,
        "lat": -16.524761,
        "lon": -68.1105,
        "aqi": 6,
        "recorded_at": "2024-01-22T02:25:57Z",
        "station_name": "Universidad Privada Boliviana , Postgrado",
        "city": "La Paz",
        "country": "Bolivia",
        "image_filepath": "images\\_Generic.jpg",
        "auto_generated": 0,
        "income_group": "Lower middle income",
        "lending_category": "IBRD"
    },
    {
        "uid": 11765,
        "lat": 31.560078,
        "lon": 74.33589,
        "aqi": 273,
        "recorded_at": "2024-01-22T03:00:00Z",
        "station_name": "Lahore US Embassy, Pakistan",
        "city": "Lahore",
        "country": "Pakistan",
        "image_filepath": "images\\_Generic.jpg",
        "auto_generated": 0,
        "income_group": "Lower middle income",
        "lending_category": "Blend"
    },
    {
        "uid": 4919,
        "lat": 61.4991,
        "lon": 23.80221,
        "aqi": 25,
        "recorded_at": "2024-01-22T03:00:00Z",
        "station_name": "Kaleva, Tampere, Finland",
        "city": "Tampere",
        "country": "Finland",
        "image_filepath": "images\\_Generic.jpg",
        "auto_generated": 0,
        "income_group": "High income",
        "lending_category": null
    },
    {
        "uid": 5467,
        "lat": 45.508512,
        "lon": -73.563352,
        "aqi": 33,
        "recorded_at": "2024-01-22T03:00:00Z",
        "station_name": "Molson, Montreal, Canada",
        "city": "Montreal",
        "country": "Canada",
        "image_filepath": "images\\_Generic.jpg",
        "auto_generated": 0,
        "income_group": "High income",
        "lending_category": null
    },
    {
        "uid": 5273,
        "lat": 21.30383819,
        "lon": -157.8711711,
        "aqi": 25,
        "recorded_at": "2024-01-22T02:00:00Z",
        "station_name": "Sand Island, Hawaii, USA",
        "city": "Honolulu",
        "country": "United States",
        "image_filepath": "images\\_Generic.jpg",
        "auto_generated": 0,
        "income_group": "High income",
        "lending_category": null
    },
    {
        "uid": -251257,
        "lat": 43.71107,
        "lon": -79.54357,
        "aqi": 82,
        "recorded_at": "2024-01-22T04:09:18Z",
        "station_name": "AQSU-401Roadside-2",
        "city": "Toronto",
        "country": "Canada",
        "image_filepath": "images\\_Generic.jpg",
        "auto_generated": 0,
        "income_group": "High income",
        "lending_category": null
    },
    {
        "uid": -373288,
        "lat": 19.39609,
        "lon": -99.152451,
        "aqi": 220,
        "recorded_at": "2023-10-22T02:17:58Z",
        "station_name": "AireCiudadano CDMX-REDHUMUS 6d4aa8",
        "city": "Mexico City",
        "country": "Mexico",
        "image_filepath": "images\\_Generic.jpg",
        "auto_generated": 0,
        "income_group": "Upper middle income",
        "lending_category": "IBRD"
    },
    {
        "uid": 11593,
        "lat": 35.685654,
        "lon": 51.450364,
        "aqi": 93,
        "recorded_at": "2024-01-06T23:30:00Z",
        "station_name": "Tehran - Park Shokoufeh, Tehran (\u062a\u0647\u0631\u0627\u0646 - \u067e\u0627\u0631\u06a9 \u0634\u06a9\u0648\u0641\u0647 \u062a\u0647\u0631\u0627\u0646)",
        "city": "Tehran",
        "country": "Iran",
        "image_filepath": "images\\_Generic.jpg",
        "auto_generated": 0,
        "income_group": "Lower middle income",
        "lending_category": "IBRD"
    },
    {
        "uid": -106609,
        "lat": -26.142,
        "lon": 27.992,
        "aqi": 90,
        "recorded_at": "2024-01-19T03:59:49Z",
        "station_name": "8th Street",
        "city": "Johannesburg",
        "country": "South Africa",
        "image_filepath": "images\\_Generic.jpg",
        "auto_generated": 0,
        "income_group": "Upper middle income",
        "lending_category": "IBRD"
    },
    {
        "uid": -398068,
        "lat": 49.28580949643439,
        "lon": -123.10577701563382,
        "aqi": 106,
        "recorded_at": "2024-01-21T17:00:00Z",
        "station_name": "SAAQS \u2013 Portside near Crab Park",
        "city": "Vancouver",
        "country": "Canada",
        "image_filepath": "images\\_Generic.jpg",
        "auto_generated": 0,
        "income_group": "High income",
        "lending_category": null
    },
    {
        "uid": 5722,
        "lat": 48.856614,
        "lon": 2.3522219,
        "aqi": 38,
        "recorded_at": "2024-01-21T23:00:00Z",
        "station_name": "Paris",
        "city": "Paris",
        "country": "France",
        "image_filepath": "images\\_Generic.jpg",
        "auto_generated": 0,
        "income_group": "High income",
        "lending_category": null
    },
    {
        "uid": 5769,
        "lat": 47.3768866,
        "lon": 8.541694,
        "aqi": 29,
        "recorded_at": "2023-12-21T01:00:00Z",
        "station_name": "Zurich",
        "city": "Zurich",
        "country": "Switzerland",
        "image_filepath": "images\\_Generic.jpg",
        "auto_generated": 0,
        "income_group": "High income",
        "lending_category": null
    },
    {
        "uid": -415672,
        "lat": -6.109588,
        "lon": 106.943323,
        "aqi": 86,
        "recorded_at": "2024-01-20T14:07:52Z",
        "station_name": "Marunda",
        "city": "Special Capital Region of Jakarta",
        "country": "Indonesia",
        "image_filepath": "images\\_Generic.jpg",
        "auto_generated": 0,
        "income_group": "Upper middle income",
        "lending_category": "IBRD"
    }
]