[
    {
        "uid": 5268,
        "lat": 21.30758,
        "lon": -157.85542,
        "aqi": 30,
        "recorded_at": "2023-09-20T17:00:00Z",
        "station_name": "Honolulu, Hawaii, USA",
        "city": "Honolulu",
        "country": "United States",
        "image_filepath": "images\\_Generic.jpg",
        "auto_generated": 0,
        "income_group": "High income",
        "lending_category": null
    },
    {
        "uid": 431,
        "lat": -33.464142,
        "lon": -70.660797,
        "aqi": 93,
        "recorded_at": "2023-09-18T12:00:00Z",
        "station_name": "Parque O'Higgins, Chile",
        "city": "Santiago",
        "country": "Chile",
        "image_filepath": "images\\_Generic.jpg",
        "auto_generated": 0,
        "income_group": "High income",
        "lending_category": "IBRD"
    },
    {
        "uid": 3307,
        "lat": 40.7143528,
        "lon": -74.0059731,
        "aqi": 54,
        "recorded_at": "2023-09-19T12:00:00Z",
        "station_name": "New York, USA",
        "city": "New York",
        "country": "United States",
        "image_filepath": "images\\_Generic.jpg",
        "auto_generated": 0,
        "income_group": "High income",
        "lending_category": null
    },
    {
        "uid": 12880,
        "lat": 12.1348,
        "lon": 15.0557,
        "aqi": 55,
        "recorded_at": "2023-09-20T21:00:00Z",
        "station_name": "N'Djamena US Embassy, Chad",
        "city": "N'Djamena",
        "country": "Chad",
        "image_filepath": "images\\_Generic.jpg",
        "auto_generated": 0,
        "income_group": "Low income",
        "lending_category": "IDA"
    },
    {
        "uid": 4919,
        "lat": 61.4991,
        "lon": 23.80221,
        "aqi": 21,
        "recorded_at": "2023-09-20T21:00:00Z",
        "station_name": "Kaleva, Tampere, Finland",
        "city": "Tampere",
        "country": "Finland",
        "image_filepath": "images\\_Generic.jpg",
        "auto_generated": 0,
        "income_group": "High income",
        "lending_category": null
    },
    {
        "uid": -409114,
        "lat": 45.556944,
        "lon": -73.6725,
        "aqi": 59,
        "recorded_at": "2023-09-20T08:12:00Z",
        "station_name": "Montr\u00e9al, Ahuntsic Live Meteo Station",
        "city": "Montreal",
        "country": "Canada",
        "image_filepath": "images\\_Generic.jpg",
        "auto_generated": 0,
        "income_group": "High income",
        "lending_category": null
    },
    {
        "uid": -415672,
        "lat": -6.109588,
        "lon": 106.943323,
        "aqi": 131,
        "recorded_at": "2023-09-20T10:09:56Z",
        "station_name": "Marunda",
        "city": "Special Capital Region of Jakarta",
        "country": "Indonesia",
        "image_filepath": "images\\_Generic.jpg",
        "auto_generated": 0,
        "income_group": "Upper middle income",
        "lending_category": "IBRD"
    },
    {
        "uid": -398458,
        "lat": 34.31508416,
        "lon": -118.4643181,
        "aqi": 56,
        "recorded_at": "2023-09-20T15:00:00Z",
        "station_name": "Herrick Ave ES (4515)",
        "city": "Los Angeles",
        "country": "United States",
        "image_filepath": "images\\_Generic.jpg",
        "auto_generated": 0,
        "income_group": "High income",
        "lending_category": null
    },
    {
        "uid": 3088,
        "lat": 48.8386,
        "lon": 2.41278,
        "aqi": 63,
        "recorded_at": "2023-09-20T18:00:00Z",
        "station_name": "Boulevard Peripherique Est, Paris",
        "city": "Paris",
        "country": "France",
        "image_filepath": "images\\_Generic.jpg",
        "auto_generated": 0,
        "income_group": "High income",
        "lending_category": null
    },
    {
        "uid": 10752,
        "lat": -26.250733,
        "lon": 27.9564167,
        "aqi": 85,
        "recorded_at": "2023-09-14T04:00:00Z",
        "station_name": "Diepkloof-NAQI, City of Johannesburg, South Africa",
        "city": "Johannesburg",
        "country": "South Africa",
        "image_filepath": "images\\_Generic.jpg",
        "auto_generated": 0,
        "income_group": "Upper middle income",
        "lending_category": "IBRD"
    },
    {
        "uid": 36,
        "lat": 43.781611,
        "lon": -79.417722,
        "aqi": 53,
        "recorded_at": "2023-09-20T14:00:00Z",
        "station_name": "Toronto North, Ontario, Canada",
        "city": "Toronto",
        "country": "Canada",
        "image_filepath": "images\\_Generic.jpg",
        "auto_generated": 0,
        "income_group": "High income",
        "lending_category": null
    },
    {
        "uid": 11765,
        "lat": 31.560078,
        "lon": 74.33589,
        "aqi": 134,
        "recorded_at": "2023-09-20T16:00:00Z",
        "station_name": "Lahore US Embassy, Pakistan",
        "city": "Lahore",
        "country": "Pakistan",
        "image_filepath": "images\\_Generic.jpg",
        "auto_generated": 0,
        "income_group": "Lower middle income",
        "lending_category": "Blend"
    },
    {
        "uid": -400051,
        "lat": 49.28153013542251,
        "lon": -123.09129007771524,
        "aqi": 48,
        "recorded_at": "2023-09-20T21:00:00Z",
        "station_name": "SAAQS \u2013 600 Block of E Hastings St",
        "city": "Vancouver",
        "country": "Canada",
        "image_filepath": "images\\_Generic.jpg",
        "auto_generated": 0,
        "income_group": "High income",
        "lending_category": null
    },
    {
        "uid": 404,
        "lat": 19.42461,
        "lon": -99.119594,
        "aqi": 102,
        "recorded_at": "2023-09-20T18:00:00Z",
        "station_name": "Merced, M\u00e9xico, Mexico",
        "city": "Mexico City",
        "country": "Mexico",
        "image_filepath": "images\\_Generic.jpg",
        "auto_generated": 0,
        "income_group": "Upper middle income",
        "lending_category": "IBRD"
    },
    {
        "uid": 13449,
        "lat": 9.0416479110718,
        "lon": 7.4773740768433,
        "aqi": 45,
        "recorded_at": "2023-09-20T21:00:00Z",
        "station_name": "Abuja US Embassy, Nigeria",
        "city": "Abuja",
        "country": "Nigeria",
        "image_filepath": "images\\_Generic.jpg",
        "auto_generated": 0,
        "income_group": "Lower middle income",
        "lending_category": "Blend"
    },
    {
        "uid": 5769,
        "lat": 47.3768866,
        "lon": 8.541694,
        "aqi": 69,
        "recorded_at": "2023-09-12T13:00:00Z",
        "station_name": "Zurich",
        "city": "Zurich",
        "country": "Switzerland",
        "image_filepath": "images\\_Generic.jpg",
        "auto_generated": 0,
        "income_group": "High income",
        "lending_category": null
    },
    {
        "uid": 7723,
        "lat": 35.70227,
        "lon": 51.35094,
        "aqi": 120,
        "recorded_at": "2023-09-20T09:30:00Z",
        "station_name": "Sharif University, Tehran (\u0634\u0631\u06cc\u0641- \u0645\u0646\u0637\u0642\u0647 2 \u062a\u0647\u0631\u0627\u0646)",
        "city": "Tehran",
        "country": "Iran",
        "image_filepath": "images\\_Generic.jpg",
        "auto_generated": 0,
        "income_group": "Lower middle income",
        "lending_category": "IBRD"
    }
]