[
    {
        "uid": -460171,
        "lat": 40.823833,
        "lon": -73.953476,
        "aqi": 190,
        "recorded_at": "2024-01-13T02:21:08Z",
        "station_name": "WE ACT Community Sensor #8",
        "city": "New York",
        "country": "United States",
        "image_filepath": "images\\_Generic.jpg",
        "auto_generated": 0,
        "income_group": "High income",
        "lending_category": null
    },
    {
        "uid": 12880,
        "lat": 12.1348,
        "lon": 15.0557,
        "aqi": 134,
        "recorded_at": "2024-01-13T01:00:00Z",
        "station_name": "N'Djamena US Embassy, Chad",
        "city": "N'Djamena",
        "country": "Chad",
        "image_filepath": "images\\_Generic.jpg",
        "auto_generated": 0,
        "income_group": "Low income",
        "lending_category": "IDA"
    },
    {
        "uid": -410074,
        "lat": -16.524761,
        "lon": -68.1105,
        "aqi": 20,
        "recorded_at": "2024-01-13T02:20:17Z",
        "station_name": "Universidad Privada Boliviana , Postgrado",
        "city": "La Paz",
        "country": "Bolivia",
        "image_filepath": "images\\_Generic.jpg",
        "auto_generated": 0,
        "income_group": "Lower middle income",
        "lending_category": "IBRD"
    },
    {
        "uid": 431,
        "lat": -33.464142,
        "lon": -70.660797,
        "aqi": 63,
        "recorded_at": "2024-01-12T08:00:00Z",
        "station_name": "Parque O'Higgins, Chile",
        "city": "Santiago",
        "country": "Chile",
        "image_filepath": "images\\_Generic.jpg",
        "auto_generated": 0,
        "income_group": "High income",
        "lending_category": "IBRD"
    },
    {
        "uid": 5467,
        "lat": 45.508512,
        "lon": -73.563352,
        "aqi": 38,
        "recorded_at": "2024-01-13T01:00:00Z",
        "station_name": "Molson, Montreal, Canada",
        "city": "Montreal",
        "country": "Canada",
        "image_filepath": "images\\_Generic.jpg",
        "auto_generated": 0,
        "income_group": "High income",
        "lending_category": null
    },
    {
        "uid": 11593,
        "lat": 35.685654,
        "lon": 51.450364,
        "aqi": 93,
        "recorded_at": "2024-01-06T23:30:00Z",
        "station_name": "Tehran - Park Shokoufeh, Tehran (\u062a\u0647\u0631\u0627\u0646 - \u067e\u0627\u0631\u06a9 \u0634\u06a9\u0648\u0641\u0647 \u062a\u0647\u0631\u0627\u0646)",
        "city": "Tehran",
        "country": "Iran",
        "image_filepath": "images\\_Generic.jpg",
        "auto_generated": 0,
        "income_group": "Lower middle income",
        "lending_category": "IBRD"
    },
    {
        "uid": 5722,
        "lat": 48.856614,
        "lon": 2.3522219,
        "aqi": 26,
        "recorded_at": "2024-01-07T01:00:00Z",
        "station_name": "Paris",
        "city": "Paris",
        "country": "France",
        "image_filepath": "images\\_Generic.jpg",
        "auto_generated": 0,
        "income_group": "High income",
        "lending_category": null
    },
    {
        "uid": -415672,
        "lat": -6.109588,
        "lon": 106.943323,
        "aqi": 97,
        "recorded_at": "2024-01-13T00:49:44Z",
        "station_name": "Marunda",
        "city": "Special Capital Region of Jakarta",
        "country": "Indonesia",
        "image_filepath": "images\\_Generic.jpg",
        "auto_generated": 0,
        "income_group": "Upper middle income",
        "lending_category": "IBRD"
    },
    {
        "uid": 11765,
        "lat": 31.560078,
        "lon": 74.33589,
        "aqi": 486,
        "recorded_at": "2024-01-13T01:00:00Z",
        "station_name": "Lahore US Embassy, Pakistan",
        "city": "Lahore",
        "country": "Pakistan",
        "image_filepath": "images\\_Generic.jpg",
        "auto_generated": 0,
        "income_group": "Lower middle income",
        "lending_category": "Blend"
    },
    {
        "uid": -106609,
        "lat": -26.142,
        "lon": 27.992,
        "aqi": 200,
        "recorded_at": "2024-01-12T18:07:34Z",
        "station_name": "8th Street",
        "city": "Johannesburg",
        "country": "South Africa",
        "image_filepath": "images\\_Generic.jpg",
        "auto_generated": 0,
        "income_group": "Upper middle income",
        "lending_category": "IBRD"
    },
    {
        "uid": 5769,
        "lat": 47.3768866,
        "lon": 8.541694,
        "aqi": 29,
        "recorded_at": "2023-12-21T01:00:00Z",
        "station_name": "Zurich",
        "city": "Zurich",
        "country": "Switzerland",
        "image_filepath": "images\\_Generic.jpg",
        "auto_generated": 0,
        "income_group": "High income",
        "lending_category": null
    },
    {
        "uid": 13449,
        "lat": 9.0416479110718,
        "lon": 7.4773740768433,
        "aqi": 174,
        "recorded_at": "2024-01-13T01:00:00Z",
        "station_name": "Abuja US Embassy, Nigeria",
        "city": "Abuja",
        "country": "Nigeria",
        "image_filepath": "images\\_Generic.jpg",
        "auto_generated": 0,
        "income_group": "Lower middle income",
        "lending_category": "Blend"
    },
    {
        "uid": -373288,
        "lat": 19.39609,
        "lon": -99.152451,
        "aqi": 220,
        "recorded_at": "2023-10-22T02:17:58Z",
        "station_name": "AireCiudadano CDMX-REDHUMUS 6d4aa8",
        "city": "Mexico City",
        "country": "Mexico",
        "image_filepath": "images\\_Generic.jpg",
        "auto_generated": 0,
        "income_group": "Upper middle income",
        "lending_category": "IBRD"
    },
    {
        "uid": -252511,
        "lat": 43.711113,
        "lon": -79.54357,
        "aqi": 63,
        "recorded_at": "2024-01-13T02:20:15Z",
        "station_name": "AQSU-401Roadside-3",
        "city": "Toronto",
        "country": "Canada",
        "image_filepath": "images\\_Generic.jpg",
        "auto_generated": 0,
        "income_group": "High income",
        "lending_category": null
    },
    {
        "uid": 5273,
        "lat": 21.30383819,
        "lon": -157.8711711,
        "aqi": 26,
        "recorded_at": "2024-01-13T02:00:00Z",
        "station_name": "Sand Island, Hawaii, USA",
        "city": "Honolulu",
        "country": "United States",
        "image_filepath": "images\\_Generic.jpg",
        "auto_generated": 0,
        "income_group": "High income",
        "lending_category": null
    },
    {
        "uid": -399238,
        "lat": 49.278037,
        "lon": -123.0602935,
        "aqi": 33,
        "recorded_at": "2024-01-12T20:00:00Z",
        "station_name": "SAAQS \u2013 700 Block of Templeton Drive",
        "city": "Vancouver",
        "country": "Canada",
        "image_filepath": "images\\_Generic.jpg",
        "auto_generated": 0,
        "income_group": "High income",
        "lending_category": null
    },
    {
        "uid": -398029,
        "lat": 34.02852221,
        "lon": -118.3399881,
        "aqi": 98,
        "recorded_at": "2024-01-12T13:00:00Z",
        "station_name": "Virginia ES (7575)",
        "city": "Los Angeles",
        "country": "United States",
        "image_filepath": "images\\_Generic.jpg",
        "auto_generated": 0,
        "income_group": "High income",
        "lending_category": null
    },
    {
        "uid": 4918,
        "lat": 61.50854,
        "lon": 23.67583,
        "aqi": 22,
        "recorded_at": "2024-01-13T01:00:00Z",
        "station_name": "Epila 2, Tampere, Finland",
        "city": "Tampere",
        "country": "Finland",
        "image_filepath": "images\\_Generic.jpg",
        "auto_generated": 0,
        "income_group": "High income",
        "lending_category": null
    }
]