[
    {
        "uid": 5273,
        "lat": 21.30383819,
        "lon": -157.8711711,
        "aqi": 21,
        "recorded_at": "2023-12-11T21:00:00Z",
        "station_name": "Sand Island, Hawaii, USA",
        "city": "Honolulu",
        "country": "United States",
        "image_filepath": "images\\_Generic.jpg",
        "auto_generated": 0,
        "income_group": "High income",
        "lending_category": null
    },
    {
        "uid": -419920,
        "lat": 40.83612,
        "lon": -73.947296,
        "aqi": 45,
        "recorded_at": "2023-12-12T00:47:08Z",
        "station_name": "WE ACT Community Sensor #2",
        "city": "New York",
        "country": "United States",
        "image_filepath": "images\\_Generic.jpg",
        "auto_generated": 0,
        "income_group": "High income",
        "lending_category": null
    },
    {
        "uid": 13449,
        "lat": 9.0416479110718,
        "lon": 7.4773740768433,
        "aqi": 167,
        "recorded_at": "2023-12-12T00:00:00Z",
        "station_name": "Abuja US Embassy, Nigeria",
        "city": "Abuja",
        "country": "Nigeria",
        "image_filepath": "images\\_Generic.jpg",
        "auto_generated": 0,
        "income_group": "Lower middle income",
        "lending_category": "Blend"
    },
    {
        "uid": -106609,
        "lat": -26.142,
        "lon": 27.992,
        "aqi": 176,
        "recorded_at": "2023-12-08T18:00:17Z",
        "station_name": "8th Street",
        "city": "Johannesburg",
        "country": "South Africa",
        "image_filepath": "images\\_Generic.jpg",
        "auto_generated": 0,
        "income_group": "Upper middle income",
        "lending_category": "IBRD"
    },
    {
        "uid": 11765,
        "lat": 31.560078,
        "lon": 74.33589,
        "aqi": 267,
        "recorded_at": "2023-12-12T00:00:00Z",
        "station_name": "Lahore US Embassy, Pakistan",
        "city": "Lahore",
        "country": "Pakistan",
        "image_filepath": "images\\_Generic.jpg",
        "auto_generated": 0,
        "income_group": "Lower middle income",
        "lending_category": "Blend"
    },
    {
        "uid": 431,
        "lat": -33.464142,
        "lon": -70.660797,
        "aqi": 76,
        "recorded_at": "2023-10-20T23:00:00Z",
        "station_name": "Parque O'Higgins, Chile",
        "city": "Santiago",
        "country": "Chile",
        "image_filepath": "images\\_Generic.jpg",
        "auto_generated": 0,
        "income_group": "High income",
        "lending_category": "IBRD"
    },
    {
        "uid": -410074,
        "lat": -16.524761,
        "lon": -68.1105,
        "aqi": 10,
        "recorded_at": "2023-12-11T22:05:39Z",
        "station_name": "Universidad Privada Boliviana , Postgrado",
        "city": "La Paz",
        "country": "Bolivia",
        "image_filepath": "images\\_Generic.jpg",
        "auto_generated": 0,
        "income_group": "Lower middle income",
        "lending_category": "IBRD"
    },
    {
        "uid": 5719,
        "lat": 61.5,
        "lon": 23.766667,
        "aqi": 44,
        "recorded_at": "2023-12-11T23:00:00Z",
        "station_name": "Tampere",
        "city": "Tampere",
        "country": "Finland",
        "image_filepath": "images\\_Generic.jpg",
        "auto_generated": 0,
        "income_group": "High income",
        "lending_category": null
    },
    {
        "uid": -9736,
        "lat": 33.716675,
        "lon": -118.309906,
        "aqi": 88,
        "recorded_at": "2023-12-11T22:05:34Z",
        "station_name": "CCA Hamilton and Silvius",
        "city": "Los Angeles",
        "country": "United States",
        "image_filepath": "images\\_Generic.jpg",
        "auto_generated": 0,
        "income_group": "High income",
        "lending_category": null
    },
    {
        "uid": -252511,
        "lat": 43.711113,
        "lon": -79.54357,
        "aqi": 31,
        "recorded_at": "2023-12-12T00:48:30Z",
        "station_name": "AQSU-401Roadside-3",
        "city": "Toronto",
        "country": "Canada",
        "image_filepath": "images\\_Generic.jpg",
        "auto_generated": 0,
        "income_group": "High income",
        "lending_category": null
    },
    {
        "uid": 8594,
        "lat": 45.454712,
        "lon": -73.569274,
        "aqi": 24,
        "recorded_at": "2023-12-11T20:00:00Z",
        "station_name": "Verdun, Montreal, Canada",
        "city": "Montreal",
        "country": "Canada",
        "image_filepath": "images\\_Generic.jpg",
        "auto_generated": 0,
        "income_group": "High income",
        "lending_category": null
    },
    {
        "uid": 12880,
        "lat": 12.1348,
        "lon": 15.0557,
        "aqi": 188,
        "recorded_at": "2023-12-12T00:00:00Z",
        "station_name": "N'Djamena US Embassy, Chad",
        "city": "N'Djamena",
        "country": "Chad",
        "image_filepath": "images\\_Generic.jpg",
        "auto_generated": 0,
        "income_group": "Low income",
        "lending_category": "IDA"
    },
    {
        "uid": 5722,
        "lat": 48.856614,
        "lon": 2.3522219,
        "aqi": 48,
        "recorded_at": "2023-12-11T03:00:00Z",
        "station_name": "Paris",
        "city": "Paris",
        "country": "France",
        "image_filepath": "images\\_Generic.jpg",
        "auto_generated": 0,
        "income_group": "High income",
        "lending_category": null
    },
    {
        "uid": -415672,
        "lat": -6.109588,
        "lon": 106.943323,
        "aqi": 144,
        "recorded_at": "2023-12-11T22:07:21Z",
        "station_name": "Marunda",
        "city": "Special Capital Region of Jakarta",
        "country": "Indonesia",
        "image_filepath": "images\\_Generic.jpg",
        "auto_generated": 0,
        "income_group": "Upper middle income",
        "lending_category": "IBRD"
    },
    {
        "uid": -373288,
        "lat": 19.39609,
        "lon": -99.152451,
        "aqi": 220,
        "recorded_at": "2023-10-22T02:17:58Z",
        "station_name": "AireCiudadano CDMX-REDHUMUS 6d4aa8",
        "city": "Mexico City",
        "country": "Mexico",
        "image_filepath": "images\\_Generic.jpg",
        "auto_generated": 0,
        "income_group": "Upper middle income",
        "lending_category": "IBRD"
    },
    {
        "uid": 10652,
        "lat": 35.6350111,
        "lon": 51.3560778,
        "aqi": 142,
        "recorded_at": "2023-12-12T00:30:00Z",
        "station_name": "Salamat, Tehran (\u0633\u0644\u0627\u0645\u062a \u062a\u0647\u0631\u0627\u0646)",
        "city": "Tehran",
        "country": "Iran",
        "image_filepath": "images\\_Generic.jpg",
        "auto_generated": 0,
        "income_group": "Lower middle income",
        "lending_category": "IBRD"
    },
    {
        "uid": -399805,
        "lat": 49.270267,
        "lon": -123.10738,
        "aqi": 37,
        "recorded_at": "2023-12-12T00:48:01Z",
        "station_name": "AQSU-VCH-OlympicVillage",
        "city": "Vancouver",
        "country": "Canada",
        "image_filepath": "images\\_Generic.jpg",
        "auto_generated": 0,
        "income_group": "High income",
        "lending_category": null
    },
    {
        "uid": -110536,
        "lat": 47.3864,
        "lon": 8.5157,
        "aqi": 157,
        "recorded_at": "2023-12-07T18:12:21Z",
        "station_name": "Naphtastrasse",
        "city": "Zurich",
        "country": "Switzerland",
        "image_filepath": "images\\_Generic.jpg",
        "auto_generated": 0,
        "income_group": "High income",
        "lending_category": null
    }
]