[
    {
        "uid": -6331,
        "lat": 49.244152,
        "lon": -123.142456,
        "aqi": 85,
        "recorded_at": "2024-02-06T22:05:42Z",
        "station_name": "AQSU-D363",
        "city": "Vancouver",
        "country": "Canada",
        "image_filepath": "images\\_Generic.jpg",
        "auto_generated": 0,
        "income_group": "High income",
        "lending_category": null
    },
    {
        "uid": 10652,
        "lat": 35.6350111,
        "lon": 51.3560778,
        "aqi": 122,
        "recorded_at": "2024-02-08T04:30:00Z",
        "station_name": "Salamat, Tehran (\u0633\u0644\u0627\u0645\u062a \u062a\u0647\u0631\u0627\u0646)",
        "city": "Tehran",
        "country": "Iran",
        "image_filepath": "images\\_Generic.jpg",
        "auto_generated": 0,
        "income_group": "Lower middle income",
        "lending_category": "IBRD"
    },
    {
        "uid": -106609,
        "lat": -26.142,
        "lon": 27.992,
        "aqi": 175,
        "recorded_at": "2024-02-07T18:08:40Z",
        "station_name": "8th Street",
        "city": "Johannesburg",
        "country": "South Africa",
        "image_filepath": "images\\_Generic.jpg",
        "auto_generated": 0,
        "income_group": "Upper middle income",
        "lending_category": "IBRD"
    },
    {
        "uid": 11765,
        "lat": 31.560078,
        "lon": 74.33589,
        "aqi": 178,
        "recorded_at": "2024-02-09T00:00:00Z",
        "station_name": "Lahore US Embassy, Pakistan",
        "city": "Lahore",
        "country": "Pakistan",
        "image_filepath": "images\\_Generic.jpg",
        "auto_generated": 0,
        "income_group": "Lower middle income",
        "lending_category": "Blend"
    },
    {
        "uid": 13449,
        "lat": 9.0416479110718,
        "lon": 7.4773740768433,
        "aqi": 297,
        "recorded_at": "2024-02-08T23:00:00Z",
        "station_name": "Abuja US Embassy, Nigeria",
        "city": "Abuja",
        "country": "Nigeria",
        "image_filepath": "images\\_Generic.jpg",
        "auto_generated": 0,
        "income_group": "Lower middle income",
        "lending_category": "Blend"
    },
    {
        "uid": -373288,
        "lat": 19.39609,
        "lon": -99.152451,
        "aqi": 220,
        "recorded_at": "2023-10-22T02:17:58Z",
        "station_name": "AireCiudadano CDMX-REDHUMUS 6d4aa8",
        "city": "Mexico City",
        "country": "Mexico",
        "image_filepath": "images\\_Generic.jpg",
        "auto_generated": 0,
        "income_group": "Upper middle income",
        "lending_category": "IBRD"
    },
    {
        "uid": -410074,
        "lat": -16.524761,
        "lon": -68.1105,
        "aqi": 54,
        "recorded_at": "2024-02-09T00:44:25Z",
        "station_name": "Universidad Privada Boliviana , Postgrado",
        "city": "La Paz",
        "country": "Bolivia",
        "image_filepath": "images\\_Generic.jpg",
        "auto_generated": 0,
        "income_group": "Lower middle income",
        "lending_category": "IBRD"
    },
    {
        "uid": -409114,
        "lat": 45.556944,
        "lon": -73.6725,
        "aqi": 111,
        "recorded_at": "2024-02-09T00:46:02Z",
        "station_name": "Montr\u00e9al, Ahuntsic Live Meteo Station",
        "city": "Montreal",
        "country": "Canada",
        "image_filepath": "images\\_Generic.jpg",
        "auto_generated": 0,
        "income_group": "High income",
        "lending_category": null
    },
    {
        "uid": -110536,
        "lat": 47.3864,
        "lon": 8.5157,
        "aqi": 86,
        "recorded_at": "2024-02-05T06:11:03Z",
        "station_name": "Naphtastrasse",
        "city": "Zurich",
        "country": "Switzerland",
        "image_filepath": "images\\_Generic.jpg",
        "auto_generated": 0,
        "income_group": "High income",
        "lending_category": null
    },
    {
        "uid": 5273,
        "lat": 21.30383819,
        "lon": -157.8711711,
        "aqi": 27,
        "recorded_at": "2024-02-09T00:00:00Z",
        "station_name": "Sand Island, Hawaii, USA",
        "city": "Honolulu",
        "country": "United States",
        "image_filepath": "images\\_Generic.jpg",
        "auto_generated": 0,
        "income_group": "High income",
        "lending_category": null
    },
    {
        "uid": 431,
        "lat": -33.464142,
        "lon": -70.660797,
        "aqi": 52,
        "recorded_at": "2024-02-08T23:00:00Z",
        "station_name": "Parque O'Higgins, Chile",
        "city": "Santiago",
        "country": "Chile",
        "image_filepath": "images\\_Generic.jpg",
        "auto_generated": 0,
        "income_group": "High income",
        "lending_category": "IBRD"
    },
    {
        "uid": 4918,
        "lat": 61.50854,
        "lon": 23.67583,
        "aqi": 38,
        "recorded_at": "2024-02-09T00:00:00Z",
        "station_name": "Epila 2, Tampere, Finland",
        "city": "Tampere",
        "country": "Finland",
        "image_filepath": "images\\_Generic.jpg",
        "auto_generated": 0,
        "income_group": "High income",
        "lending_category": null
    },
    {
        "uid": -398224,
        "lat": 34.11908877,
        "lon": -118.2064522,
        "aqi": 165,
        "recorded_at": "2024-02-08T15:00:00Z",
        "station_name": "Buchanan ES (2603)",
        "city": "Los Angeles",
        "country": "United States",
        "image_filepath": "images\\_Generic.jpg",
        "auto_generated": 0,
        "income_group": "High income",
        "lending_category": null
    },
    {
        "uid": 12880,
        "lat": 12.1348,
        "lon": 15.0557,
        "aqi": 157,
        "recorded_at": "2024-02-08T23:00:00Z",
        "station_name": "N'Djamena US Embassy, Chad",
        "city": "N'Djamena",
        "country": "Chad",
        "image_filepath": "images\\_Generic.jpg",
        "auto_generated": 0,
        "income_group": "Low income",
        "lending_category": "IDA"
    },
    {
        "uid": -417616,
        "lat": 40.823437,
        "lon": -73.9399,
        "aqi": 97,
        "recorded_at": "2024-02-09T00:41:46Z",
        "station_name": "WE ACT Community Sensor #1",
        "city": "New York",
        "country": "United States",
        "image_filepath": "images\\_Generic.jpg",
        "auto_generated": 0,
        "income_group": "High income",
        "lending_category": null
    },
    {
        "uid": -251257,
        "lat": 43.71107,
        "lon": -79.54357,
        "aqi": 126,
        "recorded_at": "2024-02-08T10:07:45Z",
        "station_name": "AQSU-401Roadside-2",
        "city": "Toronto",
        "country": "Canada",
        "image_filepath": "images\\_Generic.jpg",
        "auto_generated": 0,
        "income_group": "High income",
        "lending_category": null
    },
    {
        "uid": 3088,
        "lat": 48.8386,
        "lon": 2.41278,
        "aqi": 55,
        "recorded_at": "2024-02-08T22:00:00Z",
        "station_name": "Boulevard Peripherique Est, Paris",
        "city": "Paris",
        "country": "France",
        "image_filepath": "images\\_Generic.jpg",
        "auto_generated": 0,
        "income_group": "High income",
        "lending_category": null
    },
    {
        "uid": 8648,
        "lat": -6.236704,
        "lon": 106.79324,
        "aqi": 159,
        "recorded_at": "2024-02-08T23:00:00Z",
        "station_name": "Jakarta South (US Consulate), Indonesia",
        "city": "Special Capital Region of Jakarta",
        "country": "Indonesia",
        "image_filepath": "images\\_Generic.jpg",
        "auto_generated": 0,
        "income_group": "Upper middle income",
        "lending_category": "IBRD"
    }
]