[
    {
        "uid": 8594,
        "lat": 45.454712,
        "lon": -73.569274,
        "aqi": 24,
        "recorded_at": "2023-11-10T15:00:00Z",
        "station_name": "Verdun, Montreal, Canada",
        "city": "Montreal",
        "country": "Canada",
        "image_filepath": "images\\_Generic.jpg",
        "auto_generated": 0,
        "income_group": "High income",
        "lending_category": null
    },
    {
        "uid": -216016,
        "lat": 34.274612,
        "lon": -118.406845,
        "aqi": 142,
        "recorded_at": "2023-11-10T18:09:50Z",
        "station_name": "CCA Borden and Carl",
        "city": "Los Angeles",
        "country": "United States",
        "image_filepath": "images\\_Generic.jpg",
        "auto_generated": 0,
        "income_group": "High income",
        "lending_category": null
    },
    {
        "uid": 12880,
        "lat": 12.1348,
        "lon": 15.0557,
        "aqi": 352,
        "recorded_at": "2023-11-10T17:00:00Z",
        "station_name": "N'Djamena US Embassy, Chad",
        "city": "N'Djamena",
        "country": "Chad",
        "image_filepath": "images\\_Generic.jpg",
        "auto_generated": 0,
        "income_group": "Low income",
        "lending_category": "IDA"
    },
    {
        "uid": 431,
        "lat": -33.464142,
        "lon": -70.660797,
        "aqi": 76,
        "recorded_at": "2023-10-20T23:00:00Z",
        "station_name": "Parque O'Higgins, Chile",
        "city": "Santiago",
        "country": "Chile",
        "image_filepath": "images\\_Generic.jpg",
        "auto_generated": 0,
        "income_group": "High income",
        "lending_category": "IBRD"
    },
    {
        "uid": 10752,
        "lat": -26.250733,
        "lon": 27.9564167,
        "aqi": 61,
        "recorded_at": "2023-09-26T10:00:00Z",
        "station_name": "Diepkloof-NAQI, City of Johannesburg, South Africa",
        "city": "Johannesburg",
        "country": "South Africa",
        "image_filepath": "images\\_Generic.jpg",
        "auto_generated": 0,
        "income_group": "Upper middle income",
        "lending_category": "IBRD"
    },
    {
        "uid": 37,
        "lat": 43.709444,
        "lon": -79.5435,
        "aqi": 34,
        "recorded_at": "2023-11-10T14:00:00Z",
        "station_name": "Toronto West, Ontario, Canada",
        "city": "Toronto",
        "country": "Canada",
        "image_filepath": "images\\_Generic.jpg",
        "auto_generated": 0,
        "income_group": "High income",
        "lending_category": null
    },
    {
        "uid": 3088,
        "lat": 48.8386,
        "lon": 2.41278,
        "aqi": 52,
        "recorded_at": "2023-11-10T10:00:00Z",
        "station_name": "Boulevard Peripherique Est, Paris",
        "city": "Paris",
        "country": "France",
        "image_filepath": "images\\_Generic.jpg",
        "auto_generated": 0,
        "income_group": "High income",
        "lending_category": null
    },
    {
        "uid": 2701,
        "lat": 47.3775,
        "lon": 8.5305555555556,
        "aqi": 28,
        "recorded_at": "2023-11-07T12:00:00Z",
        "station_name": "Zurich Kaserne, Switzerland",
        "city": "Zurich",
        "country": "Switzerland",
        "image_filepath": "images\\_Generic.jpg",
        "auto_generated": 0,
        "income_group": "High income",
        "lending_category": null
    },
    {
        "uid": 11591,
        "lat": 35.658217,
        "lon": 51.328228,
        "aqi": 164,
        "recorded_at": "2023-11-07T19:30:00Z",
        "station_name": "Ghaem, Tehran (\u0642\u0627\u0626\u0645 \u062a\u0647\u0631\u0627\u0646)",
        "city": "Tehran",
        "country": "Iran",
        "image_filepath": "images\\_Generic.jpg",
        "auto_generated": 0,
        "income_group": "Lower middle income",
        "lending_category": "IBRD"
    },
    {
        "uid": -421189,
        "lat": 40.795002,
        "lon": -73.942764,
        "aqi": 57,
        "recorded_at": "2023-11-10T18:07:51Z",
        "station_name": "WE ACT Community Sensor #4",
        "city": "New York",
        "country": "United States",
        "image_filepath": "images\\_Generic.jpg",
        "auto_generated": 0,
        "income_group": "High income",
        "lending_category": null
    },
    {
        "uid": 11765,
        "lat": 31.560078,
        "lon": 74.33589,
        "aqi": 158,
        "recorded_at": "2023-11-10T17:00:00Z",
        "station_name": "Lahore US Embassy, Pakistan",
        "city": "Lahore",
        "country": "Pakistan",
        "image_filepath": "images\\_Generic.jpg",
        "auto_generated": 0,
        "income_group": "Lower middle income",
        "lending_category": "Blend"
    },
    {
        "uid": -373288,
        "lat": 19.39609,
        "lon": -99.152451,
        "aqi": 220,
        "recorded_at": "2023-10-22T02:17:58Z",
        "station_name": "AireCiudadano CDMX-REDHUMUS 6d4aa8",
        "city": "Mexico City",
        "country": "Mexico",
        "image_filepath": "images\\_Generic.jpg",
        "auto_generated": 0,
        "income_group": "Upper middle income",
        "lending_category": "IBRD"
    },
    {
        "uid": -410074,
        "lat": -16.524761,
        "lon": -68.1105,
        "aqi": 24,
        "recorded_at": "2023-11-10T20:07:10Z",
        "station_name": "Universidad Privada Boliviana , Postgrado",
        "city": "La Paz",
        "country": "Bolivia",
        "image_filepath": "images\\_Generic.jpg",
        "auto_generated": 0,
        "income_group": "Lower middle income",
        "lending_category": "IBRD"
    },
    {
        "uid": 5273,
        "lat": 21.30383819,
        "lon": -157.8711711,
        "aqi": 34,
        "recorded_at": "2023-11-10T00:00:00Z",
        "station_name": "Sand Island, Hawaii, USA",
        "city": "Honolulu",
        "country": "United States",
        "image_filepath": "images\\_Generic.jpg",
        "auto_generated": 0,
        "income_group": "High income",
        "lending_category": null
    },
    {
        "uid": -415672,
        "lat": -6.109588,
        "lon": 106.943323,
        "aqi": 182,
        "recorded_at": "2023-11-10T20:08:55Z",
        "station_name": "Marunda",
        "city": "Special Capital Region of Jakarta",
        "country": "Indonesia",
        "image_filepath": "images\\_Generic.jpg",
        "auto_generated": 0,
        "income_group": "Upper middle income",
        "lending_category": "IBRD"
    },
    {
        "uid": -399805,
        "lat": 49.270267,
        "lon": -123.10738,
        "aqi": 57,
        "recorded_at": "2023-11-10T20:06:48Z",
        "station_name": "AQSU-VCH-OlympicVillage",
        "city": "Vancouver",
        "country": "Canada",
        "image_filepath": "images\\_Generic.jpg",
        "auto_generated": 0,
        "income_group": "High income",
        "lending_category": null
    },
    {
        "uid": -418330,
        "lat": 9.055975056583273,
        "lon": 7.503440214036265,
        "aqi": 102,
        "recorded_at": "2023-11-10T18:00:00Z",
        "station_name": "Federal Capital Territory, Nigeria",
        "city": "Abuja",
        "country": "Nigeria",
        "image_filepath": "images\\_Generic.jpg",
        "auto_generated": 0,
        "income_group": "Lower middle income",
        "lending_category": "Blend"
    },
    {
        "uid": 4918,
        "lat": 61.50854,
        "lon": 23.67583,
        "aqi": 16,
        "recorded_at": "2023-11-10T18:00:00Z",
        "station_name": "Epila 2, Tampere, Finland",
        "city": "Tampere",
        "country": "Finland",
        "image_filepath": "images\\_Generic.jpg",
        "auto_generated": 0,
        "income_group": "High income",
        "lending_category": null
    }
]