[
    {
        "uid": 12880,
        "lat": 12.1348,
        "lon": 15.0557,
        "aqi": 198,
        "recorded_at": "2023-11-24T06:00:00Z",
        "station_name": "N'Djamena US Embassy, Chad",
        "city": "N'Djamena",
        "country": "Chad",
        "image_filepath": "images\\_Generic.jpg",
        "auto_generated": 0,
        "income_group": "Low income",
        "lending_category": "IDA"
    },
    {
        "uid": -9736,
        "lat": 33.716675,
        "lon": -118.309906,
        "aqi": 73,
        "recorded_at": "2023-11-25T22:06:49Z",
        "station_name": "CCA Hamilton and Silvius",
        "city": "Los Angeles",
        "country": "United States",
        "image_filepath": "images\\_Generic.jpg",
        "auto_generated": 0,
        "income_group": "High income",
        "lending_category": null
    },
    {
        "uid": 11765,
        "lat": 31.560078,
        "lon": 74.33589,
        "aqi": 550,
        "recorded_at": "2023-11-25T21:00:00Z",
        "station_name": "Lahore US Embassy, Pakistan",
        "city": "Lahore",
        "country": "Pakistan",
        "image_filepath": "images\\_Generic.jpg",
        "auto_generated": 0,
        "income_group": "Lower middle income",
        "lending_category": "Blend"
    },
    {
        "uid": -251257,
        "lat": 43.71107,
        "lon": -79.54357,
        "aqi": 49,
        "recorded_at": "2023-11-25T18:09:26Z",
        "station_name": "AQSU-401Roadside-2",
        "city": "Toronto",
        "country": "Canada",
        "image_filepath": "images\\_Generic.jpg",
        "auto_generated": 0,
        "income_group": "High income",
        "lending_category": null
    },
    {
        "uid": -415672,
        "lat": -6.109588,
        "lon": 106.943323,
        "aqi": 151,
        "recorded_at": "2023-11-25T20:08:31Z",
        "station_name": "Marunda",
        "city": "Special Capital Region of Jakarta",
        "country": "Indonesia",
        "image_filepath": "images\\_Generic.jpg",
        "auto_generated": 0,
        "income_group": "Upper middle income",
        "lending_category": "IBRD"
    },
    {
        "uid": 5769,
        "lat": 47.3768866,
        "lon": 8.541694,
        "aqi": 28,
        "recorded_at": "2023-11-16T23:00:00Z",
        "station_name": "Zurich",
        "city": "Zurich",
        "country": "Switzerland",
        "image_filepath": "images\\_Generic.jpg",
        "auto_generated": 0,
        "income_group": "High income",
        "lending_category": null
    },
    {
        "uid": -418330,
        "lat": 9.055975056583273,
        "lon": 7.503440214036265,
        "aqi": 154,
        "recorded_at": "2023-11-25T20:00:00Z",
        "station_name": "Federal Capital Territory, Nigeria",
        "city": "Abuja",
        "country": "Nigeria",
        "image_filepath": "images\\_Generic.jpg",
        "auto_generated": 0,
        "income_group": "Lower middle income",
        "lending_category": "Blend"
    },
    {
        "uid": 11591,
        "lat": 35.658217,
        "lon": 51.328228,
        "aqi": 167,
        "recorded_at": "2023-11-24T00:30:00Z",
        "station_name": "Ghaem, Tehran (\u0642\u0627\u0626\u0645 \u062a\u0647\u0631\u0627\u0646)",
        "city": "Tehran",
        "country": "Iran",
        "image_filepath": "images\\_Generic.jpg",
        "auto_generated": 0,
        "income_group": "Lower middle income",
        "lending_category": "IBRD"
    },
    {
        "uid": 8625,
        "lat": 45.615839,
        "lon": -73.569288,
        "aqi": 24,
        "recorded_at": "2023-11-25T11:00:00Z",
        "station_name": "Anjou, Montreal, Canada",
        "city": "Montreal",
        "country": "Canada",
        "image_filepath": "images\\_Generic.jpg",
        "auto_generated": 0,
        "income_group": "High income",
        "lending_category": null
    },
    {
        "uid": -417616,
        "lat": 40.823437,
        "lon": -73.9399,
        "aqi": 35,
        "recorded_at": "2023-11-25T20:06:33Z",
        "station_name": "WE ACT Community Sensor #1",
        "city": "New York",
        "country": "United States",
        "image_filepath": "images\\_Generic.jpg",
        "auto_generated": 0,
        "income_group": "High income",
        "lending_category": null
    },
    {
        "uid": 10752,
        "lat": -26.250733,
        "lon": 27.9564167,
        "aqi": 80,
        "recorded_at": "2023-11-15T06:00:00Z",
        "station_name": "Diepkloof-NAQI, City of Johannesburg, South Africa",
        "city": "Johannesburg",
        "country": "South Africa",
        "image_filepath": "images\\_Generic.jpg",
        "auto_generated": 0,
        "income_group": "Upper middle income",
        "lending_category": "IBRD"
    },
    {
        "uid": 4919,
        "lat": 61.4991,
        "lon": 23.80221,
        "aqi": 19,
        "recorded_at": "2023-11-25T21:00:00Z",
        "station_name": "Kaleva, Tampere, Finland",
        "city": "Tampere",
        "country": "Finland",
        "image_filepath": "images\\_Generic.jpg",
        "auto_generated": 0,
        "income_group": "High income",
        "lending_category": null
    },
    {
        "uid": 14111,
        "lat": 49.26029,
        "lon": -123.077811,
        "aqi": 66,
        "recorded_at": "2023-11-25T11:00:00Z",
        "station_name": "Vancouver Clark Drive, British Comlumbia, Canada",
        "city": "Vancouver",
        "country": "Canada",
        "image_filepath": "images\\_Generic.jpg",
        "auto_generated": 0,
        "income_group": "High income",
        "lending_category": null
    },
    {
        "uid": 5273,
        "lat": 21.30383819,
        "lon": -157.8711711,
        "aqi": 38,
        "recorded_at": "2023-11-25T21:00:00Z",
        "station_name": "Sand Island, Hawaii, USA",
        "city": "Honolulu",
        "country": "United States",
        "image_filepath": "images\\_Generic.jpg",
        "auto_generated": 0,
        "income_group": "High income",
        "lending_category": null
    },
    {
        "uid": 5722,
        "lat": 48.856614,
        "lon": 2.3522219,
        "aqi": 77,
        "recorded_at": "2023-11-25T15:00:00Z",
        "station_name": "Paris",
        "city": "Paris",
        "country": "France",
        "image_filepath": "images\\_Generic.jpg",
        "auto_generated": 0,
        "income_group": "High income",
        "lending_category": null
    },
    {
        "uid": -373288,
        "lat": 19.39609,
        "lon": -99.152451,
        "aqi": 220,
        "recorded_at": "2023-10-22T02:17:58Z",
        "station_name": "AireCiudadano CDMX-REDHUMUS 6d4aa8",
        "city": "Mexico City",
        "country": "Mexico",
        "image_filepath": "images\\_Generic.jpg",
        "auto_generated": 0,
        "income_group": "Upper middle income",
        "lending_category": "IBRD"
    },
    {
        "uid": 431,
        "lat": -33.464142,
        "lon": -70.660797,
        "aqi": 76,
        "recorded_at": "2023-10-20T23:00:00Z",
        "station_name": "Parque O'Higgins, Chile",
        "city": "Santiago",
        "country": "Chile",
        "image_filepath": "images\\_Generic.jpg",
        "auto_generated": 0,
        "income_group": "High income",
        "lending_category": "IBRD"
    },
    {
        "uid": -410074,
        "lat": -16.524761,
        "lon": -68.1105,
        "aqi": 1,
        "recorded_at": "2023-11-25T20:06:39Z",
        "station_name": "Universidad Privada Boliviana , Postgrado",
        "city": "La Paz",
        "country": "Bolivia",
        "image_filepath": "images\\_Generic.jpg",
        "auto_generated": 0,
        "income_group": "Lower middle income",
        "lending_category": "IBRD"
    }
]