[
    {
        "uid": 11765,
        "lat": 31.560078,
        "lon": 74.33589,
        "aqi": 107,
        "recorded_at": "2023-09-11T11:00:00Z",
        "station_name": "Lahore US Embassy, Pakistan",
        "city": "Lahore",
        "country": "Pakistan",
        "image_filepath": "images\\_Generic.jpg",
        "auto_generated": 0,
        "income_group": "Lower middle income",
        "lending_category": "Blend"
    },
    {
        "uid": 5273,
        "lat": 21.30383819,
        "lon": -157.8711711,
        "aqi": 25,
        "recorded_at": "2023-09-11T04:00:00Z",
        "station_name": "Sand Island, Hawaii, USA",
        "city": "Honolulu",
        "country": "United States",
        "image_filepath": "images\\_Generic.jpg",
        "auto_generated": 0,
        "income_group": "High income",
        "lending_category": null
    },
    {
        "uid": -403855,
        "lat": -6.15969,
        "lon": 106.905541,
        "aqi": 146,
        "recorded_at": "2023-09-11T10:00:00Z",
        "station_name": "Kelapa Gading",
        "city": "Special Capital Region of Jakarta",
        "country": "Indonesia",
        "image_filepath": "images\\_Generic.jpg",
        "auto_generated": 0,
        "income_group": "Upper middle income",
        "lending_category": "IBRD"
    },
    {
        "uid": 12880,
        "lat": 12.1348,
        "lon": 15.0557,
        "aqi": 99,
        "recorded_at": "2023-09-11T08:00:00Z",
        "station_name": "N'Djamena US Embassy, Chad",
        "city": "N'Djamena",
        "country": "Chad",
        "image_filepath": "images\\_Generic.jpg",
        "auto_generated": 0,
        "income_group": "Low income",
        "lending_category": "IDA"
    },
    {
        "uid": -400006,
        "lat": 34.14764112855624,
        "lon": -118.367711532977,
        "aqi": 114,
        "recorded_at": "2023-09-11T05:00:00Z",
        "station_name": "Rio Vista ES (6288)",
        "city": "Los Angeles",
        "country": "United States",
        "image_filepath": "images\\_Generic.jpg",
        "auto_generated": 0,
        "income_group": "High income",
        "lending_category": null
    },
    {
        "uid": 5882,
        "lat": 40.63306,
        "lon": -74.137156,
        "aqi": 47,
        "recorded_at": "2023-09-11T10:00:00Z",
        "station_name": "Port Richmond, New York, USA",
        "city": "New York",
        "country": "United States",
        "image_filepath": "images\\_Generic.jpg",
        "auto_generated": 0,
        "income_group": "High income",
        "lending_category": null
    },
    {
        "uid": -398965,
        "lat": 49.27977528053519,
        "lon": -123.08200619923531,
        "aqi": 53,
        "recorded_at": "2023-09-11T09:00:00Z",
        "station_name": "SAAQS \u2013 1000 Block of E Pender St",
        "city": "Vancouver",
        "country": "Canada",
        "image_filepath": "images\\_Generic.jpg",
        "auto_generated": 0,
        "income_group": "High income",
        "lending_category": null
    },
    {
        "uid": 4921,
        "lat": 61.49873,
        "lon": 23.73569,
        "aqi": 53,
        "recorded_at": "2023-09-11T11:00:00Z",
        "station_name": "Pirkankatu, Tampere, Finland",
        "city": "Tampere",
        "country": "Finland",
        "image_filepath": "images\\_Generic.jpg",
        "auto_generated": 0,
        "income_group": "High income",
        "lending_category": null
    },
    {
        "uid": 13449,
        "lat": 9.0416479110718,
        "lon": 7.4773740768433,
        "aqi": 52,
        "recorded_at": "2023-09-11T11:00:00Z",
        "station_name": "Abuja US Embassy, Nigeria",
        "city": "Abuja",
        "country": "Nigeria",
        "image_filepath": "images\\_Generic.jpg",
        "auto_generated": 0,
        "income_group": "Lower middle income",
        "lending_category": "Blend"
    },
    {
        "uid": -409114,
        "lat": 45.556944,
        "lon": -73.6725,
        "aqi": 59,
        "recorded_at": "2023-09-11T02:16:26Z",
        "station_name": "Montr\u00e9al, Ahuntsic Live Meteo Station",
        "city": "Montreal",
        "country": "Canada",
        "image_filepath": "images\\_Generic.jpg",
        "auto_generated": 0,
        "income_group": "High income",
        "lending_category": null
    },
    {
        "uid": 431,
        "lat": -33.464142,
        "lon": -70.660797,
        "aqi": 76,
        "recorded_at": "2023-09-11T11:00:00Z",
        "station_name": "Parque O'Higgins, Chile",
        "city": "Santiago",
        "country": "Chile",
        "image_filepath": "images\\_Generic.jpg",
        "auto_generated": 0,
        "income_group": "High income",
        "lending_category": "IBRD"
    },
    {
        "uid": 11773,
        "lat": 19.34561,
        "lon": -99.009381,
        "aqi": 114,
        "recorded_at": "2023-09-06T19:00:00Z",
        "station_name": "Santiago Acahualtepec, M\u00e9xico, Mexico",
        "city": "Mexico City",
        "country": "Mexico",
        "image_filepath": "images\\_Generic.jpg",
        "auto_generated": 0,
        "income_group": "Upper middle income",
        "lending_category": "IBRD"
    },
    {
        "uid": -252511,
        "lat": 43.711113,
        "lon": -79.54357,
        "aqi": 61,
        "recorded_at": "2023-09-11T12:16:34Z",
        "station_name": "AQSU-401Roadside-3",
        "city": "Toronto",
        "country": "Canada",
        "image_filepath": "images\\_Generic.jpg",
        "auto_generated": 0,
        "income_group": "High income",
        "lending_category": null
    },
    {
        "uid": 5769,
        "lat": 47.3768866,
        "lon": 8.541694,
        "aqi": 75,
        "recorded_at": "2023-09-10T17:00:00Z",
        "station_name": "Zurich",
        "city": "Zurich",
        "country": "Switzerland",
        "image_filepath": "images\\_Generic.jpg",
        "auto_generated": 0,
        "income_group": "High income",
        "lending_category": null
    },
    {
        "uid": 3088,
        "lat": 48.8386,
        "lon": 2.41278,
        "aqi": 118,
        "recorded_at": "2023-09-11T08:00:00Z",
        "station_name": "Boulevard Peripherique Est, Paris",
        "city": "Paris",
        "country": "France",
        "image_filepath": "images\\_Generic.jpg",
        "auto_generated": 0,
        "income_group": "High income",
        "lending_category": null
    }
]