[
    {
        "uid": -378307,
        "lat": 40.829655,
        "lon": -73.94472,
        "aqi": 129,
        "recorded_at": "2023-11-24T02:17:23Z",
        "station_name": "WE ACT for Environmental Justice Office",
        "city": "New York",
        "country": "United States",
        "image_filepath": "images\\_Generic.jpg",
        "auto_generated": 0,
        "income_group": "High income",
        "lending_category": null
    },
    {
        "uid": -409114,
        "lat": 45.556944,
        "lon": -73.6725,
        "aqi": 78,
        "recorded_at": "2023-11-24T02:19:47Z",
        "station_name": "Montr\u00e9al, Ahuntsic Live Meteo Station",
        "city": "Montreal",
        "country": "Canada",
        "image_filepath": "images\\_Generic.jpg",
        "auto_generated": 0,
        "income_group": "High income",
        "lending_category": null
    },
    {
        "uid": 5273,
        "lat": 21.30383819,
        "lon": -157.8711711,
        "aqi": 18,
        "recorded_at": "2023-11-24T03:00:00Z",
        "station_name": "Sand Island, Hawaii, USA",
        "city": "Honolulu",
        "country": "United States",
        "image_filepath": "images\\_Generic.jpg",
        "auto_generated": 0,
        "income_group": "High income",
        "lending_category": null
    },
    {
        "uid": 13449,
        "lat": 9.0416479110718,
        "lon": 7.4773740768433,
        "aqi": 163,
        "recorded_at": "2023-11-24T02:00:00Z",
        "station_name": "Abuja US Embassy, Nigeria",
        "city": "Abuja",
        "country": "Nigeria",
        "image_filepath": "images\\_Generic.jpg",
        "auto_generated": 0,
        "income_group": "Lower middle income",
        "lending_category": "Blend"
    },
    {
        "uid": 431,
        "lat": -33.464142,
        "lon": -70.660797,
        "aqi": 76,
        "recorded_at": "2023-10-20T23:00:00Z",
        "station_name": "Parque O'Higgins, Chile",
        "city": "Santiago",
        "country": "Chile",
        "image_filepath": "images\\_Generic.jpg",
        "auto_generated": 0,
        "income_group": "High income",
        "lending_category": "IBRD"
    },
    {
        "uid": -410074,
        "lat": -16.524761,
        "lon": -68.1105,
        "aqi": 65,
        "recorded_at": "2023-11-24T04:08:37Z",
        "station_name": "Universidad Privada Boliviana , Postgrado",
        "city": "La Paz",
        "country": "Bolivia",
        "image_filepath": "images\\_Generic.jpg",
        "auto_generated": 0,
        "income_group": "Lower middle income",
        "lending_category": "IBRD"
    },
    {
        "uid": -216016,
        "lat": 34.274612,
        "lon": -118.406845,
        "aqi": 110,
        "recorded_at": "2023-11-24T02:17:59Z",
        "station_name": "CCA Borden and Carl",
        "city": "Los Angeles",
        "country": "United States",
        "image_filepath": "images\\_Generic.jpg",
        "auto_generated": 0,
        "income_group": "High income",
        "lending_category": null
    },
    {
        "uid": -422200,
        "lat": 12.13915151894758,
        "lon": 15.056874748053424,
        "aqi": 155,
        "recorded_at": "2023-11-24T03:00:00Z",
        "station_name": "N'Djamena",
        "city": "N'Djamena",
        "country": "Chad",
        "image_filepath": "images\\_Generic.jpg",
        "auto_generated": 0,
        "income_group": "Low income",
        "lending_category": "IDA"
    },
    {
        "uid": 11591,
        "lat": 35.658217,
        "lon": 51.328228,
        "aqi": 167,
        "recorded_at": "2023-11-24T00:30:00Z",
        "station_name": "Ghaem, Tehran (\u0642\u0627\u0626\u0645 \u062a\u0647\u0631\u0627\u0646)",
        "city": "Tehran",
        "country": "Iran",
        "image_filepath": "images\\_Generic.jpg",
        "auto_generated": 0,
        "income_group": "Lower middle income",
        "lending_category": "IBRD"
    },
    {
        "uid": -252511,
        "lat": 43.711113,
        "lon": -79.54357,
        "aqi": 69,
        "recorded_at": "2023-11-24T04:08:33Z",
        "station_name": "AQSU-401Roadside-3",
        "city": "Toronto",
        "country": "Canada",
        "image_filepath": "images\\_Generic.jpg",
        "auto_generated": 0,
        "income_group": "High income",
        "lending_category": null
    },
    {
        "uid": 5769,
        "lat": 47.3768866,
        "lon": 8.541694,
        "aqi": 28,
        "recorded_at": "2023-11-16T23:00:00Z",
        "station_name": "Zurich",
        "city": "Zurich",
        "country": "Switzerland",
        "image_filepath": "images\\_Generic.jpg",
        "auto_generated": 0,
        "income_group": "High income",
        "lending_category": null
    },
    {
        "uid": 5722,
        "lat": 48.856614,
        "lon": 2.3522219,
        "aqi": 46,
        "recorded_at": "2023-11-23T23:00:00Z",
        "station_name": "Paris",
        "city": "Paris",
        "country": "France",
        "image_filepath": "images\\_Generic.jpg",
        "auto_generated": 0,
        "income_group": "High income",
        "lending_category": null
    },
    {
        "uid": -373288,
        "lat": 19.39609,
        "lon": -99.152451,
        "aqi": 220,
        "recorded_at": "2023-10-22T02:17:58Z",
        "station_name": "AireCiudadano CDMX-REDHUMUS 6d4aa8",
        "city": "Mexico City",
        "country": "Mexico",
        "image_filepath": "images\\_Generic.jpg",
        "auto_generated": 0,
        "income_group": "Upper middle income",
        "lending_category": "IBRD"
    },
    {
        "uid": 11765,
        "lat": 31.560078,
        "lon": 74.33589,
        "aqi": 592,
        "recorded_at": "2023-11-24T03:00:00Z",
        "station_name": "Lahore US Embassy, Pakistan",
        "city": "Lahore",
        "country": "Pakistan",
        "image_filepath": "images\\_Generic.jpg",
        "auto_generated": 0,
        "income_group": "Lower middle income",
        "lending_category": "Blend"
    },
    {
        "uid": -415672,
        "lat": -6.109588,
        "lon": 106.943323,
        "aqi": 194,
        "recorded_at": "2023-11-24T01:26:50Z",
        "station_name": "Marunda",
        "city": "Special Capital Region of Jakarta",
        "country": "Indonesia",
        "image_filepath": "images\\_Generic.jpg",
        "auto_generated": 0,
        "income_group": "Upper middle income",
        "lending_category": "IBRD"
    },
    {
        "uid": 4919,
        "lat": 61.4991,
        "lon": 23.80221,
        "aqi": 20,
        "recorded_at": "2023-11-24T03:00:00Z",
        "station_name": "Kaleva, Tampere, Finland",
        "city": "Tampere",
        "country": "Finland",
        "image_filepath": "images\\_Generic.jpg",
        "auto_generated": 0,
        "income_group": "High income",
        "lending_category": null
    },
    {
        "uid": 10752,
        "lat": -26.250733,
        "lon": 27.9564167,
        "aqi": 80,
        "recorded_at": "2023-11-15T06:00:00Z",
        "station_name": "Diepkloof-NAQI, City of Johannesburg, South Africa",
        "city": "Johannesburg",
        "country": "South Africa",
        "image_filepath": "images\\_Generic.jpg",
        "auto_generated": 0,
        "income_group": "Upper middle income",
        "lending_category": "IBRD"
    },
    {
        "uid": 14111,
        "lat": 49.26029,
        "lon": -123.077811,
        "aqi": 59,
        "recorded_at": "2023-11-23T07:00:00Z",
        "station_name": "Vancouver Clark Drive, British Comlumbia, Canada",
        "city": "Vancouver",
        "country": "Canada",
        "image_filepath": "images\\_Generic.jpg",
        "auto_generated": 0,
        "income_group": "High income",
        "lending_category": null
    }
]