[
    {
        "uid": 11765,
        "lat": 31.560078,
        "lon": 74.33589,
        "aqi": 228,
        "recorded_at": "2024-03-07T21:00:00Z",
        "station_name": "Lahore US Embassy, Pakistan",
        "city": "Lahore",
        "country": "Pakistan",
        "image_filepath": "images\\_Generic.jpg",
        "auto_generated": 0,
        "income_group": "Lower middle income",
        "lending_category": "Blend"
    },
    {
        "uid": 10716,
        "lat": 45.464611,
        "lon": -73.582583,
        "aqi": 30,
        "recorded_at": "2024-03-08T01:00:00Z",
        "station_name": "Roberval, York, Montreal, Canada",
        "city": "Montreal",
        "country": "Canada",
        "image_filepath": "images\\_Generic.jpg",
        "auto_generated": 0,
        "income_group": "High income",
        "lending_category": null
    },
    {
        "uid": -6331,
        "lat": 49.244152,
        "lon": -123.142456,
        "aqi": 51,
        "recorded_at": "2024-03-07T20:07:35Z",
        "station_name": "AQSU-D363",
        "city": "Vancouver",
        "country": "Canada",
        "image_filepath": "images\\_Generic.jpg",
        "auto_generated": 0,
        "income_group": "High income",
        "lending_category": null
    },
    {
        "uid": 13449,
        "lat": 9.0416479110718,
        "lon": 7.4773740768433,
        "aqi": 73,
        "recorded_at": "2024-03-08T01:00:00Z",
        "station_name": "Abuja US Embassy, Nigeria",
        "city": "Abuja",
        "country": "Nigeria",
        "image_filepath": "images\\_Generic.jpg",
        "auto_generated": 0,
        "income_group": "Lower middle income",
        "lending_category": "Blend"
    },
    {
        "uid": 5273,
        "lat": 21.30383819,
        "lon": -157.8711711,
        "aqi": 32,
        "recorded_at": "2024-03-07T23:00:00Z",
        "station_name": "Sand Island, Hawaii, USA",
        "city": "Honolulu",
        "country": "United States",
        "image_filepath": "images\\_Generic.jpg",
        "auto_generated": 0,
        "income_group": "High income",
        "lending_category": null
    },
    {
        "uid": 7722,
        "lat": 35.60363,
        "lon": 51.42571,
        "aqi": 120,
        "recorded_at": "2024-03-07T23:30:00Z",
        "station_name": "Shahre Rey, Tehran (\u0641\u0631\u0645\u0627\u0646\u062f\u0627\u0631\u06cc \u0634\u0647\u0631\u0631\u06cc \u062a\u0647\u0631\u0627\u0646)",
        "city": "Tehran",
        "country": "Iran",
        "image_filepath": "images\\_Generic.jpg",
        "auto_generated": 0,
        "income_group": "Lower middle income",
        "lending_category": "IBRD"
    },
    {
        "uid": -410074,
        "lat": -16.524761,
        "lon": -68.1105,
        "aqi": 23,
        "recorded_at": "2024-03-08T00:44:30Z",
        "station_name": "Universidad Privada Boliviana , Postgrado",
        "city": "La Paz",
        "country": "Bolivia",
        "image_filepath": "images\\_Generic.jpg",
        "auto_generated": 0,
        "income_group": "Lower middle income",
        "lending_category": "IBRD"
    },
    {
        "uid": -179170,
        "lat": 33.723373,
        "lon": -118.29684,
        "aqi": 73,
        "recorded_at": "2024-03-08T02:13:35Z",
        "station_name": "CCA 23rd and Meyler",
        "city": "Los Angeles",
        "country": "United States",
        "image_filepath": "images\\_Generic.jpg",
        "auto_generated": 0,
        "income_group": "High income",
        "lending_category": null
    },
    {
        "uid": 431,
        "lat": -33.464142,
        "lon": -70.660797,
        "aqi": 66,
        "recorded_at": "2024-03-06T22:00:00Z",
        "station_name": "Parque O'Higgins, Chile",
        "city": "Santiago",
        "country": "Chile",
        "image_filepath": "images\\_Generic.jpg",
        "auto_generated": 0,
        "income_group": "High income",
        "lending_category": "IBRD"
    },
    {
        "uid": -106609,
        "lat": -26.142,
        "lon": 27.992,
        "aqi": 160,
        "recorded_at": "2024-03-04T04:38:05Z",
        "station_name": "8th Street",
        "city": "Johannesburg",
        "country": "South Africa",
        "image_filepath": "images\\_Generic.jpg",
        "auto_generated": 0,
        "income_group": "Upper middle income",
        "lending_category": "IBRD"
    },
    {
        "uid": 12880,
        "lat": 12.1348,
        "lon": 15.0557,
        "aqi": 173,
        "recorded_at": "2024-03-08T01:00:00Z",
        "station_name": "N'Djamena US Embassy, Chad",
        "city": "N'Djamena",
        "country": "Chad",
        "image_filepath": "images\\_Generic.jpg",
        "auto_generated": 0,
        "income_group": "Low income",
        "lending_category": "IDA"
    },
    {
        "uid": -373288,
        "lat": 19.39609,
        "lon": -99.152451,
        "aqi": 220,
        "recorded_at": "2023-10-22T02:17:58Z",
        "station_name": "AireCiudadano CDMX-REDHUMUS 6d4aa8",
        "city": "Mexico City",
        "country": "Mexico",
        "image_filepath": "images\\_Generic.jpg",
        "auto_generated": 0,
        "income_group": "Upper middle income",
        "lending_category": "IBRD"
    },
    {
        "uid": 11931,
        "lat": 39.595001,
        "lon": -75.611,
        "aqi": 19,
        "recorded_at": "2024-03-07T11:00:00Z",
        "station_name": "Rte 9 Del. City, Delaware, USA",
        "city": "Special Capital Region of Jakarta",
        "country": "Indonesia",
        "image_filepath": "images\\_Generic.jpg",
        "auto_generated": 0,
        "income_group": "Upper middle income",
        "lending_category": "IBRD"
    },
    {
        "uid": -252511,
        "lat": 43.711113,
        "lon": -79.54357,
        "aqi": 55,
        "recorded_at": "2024-03-08T00:44:26Z",
        "station_name": "AQSU-401Roadside-3",
        "city": "Toronto",
        "country": "Canada",
        "image_filepath": "images\\_Generic.jpg",
        "auto_generated": 0,
        "income_group": "High income",
        "lending_category": null
    },
    {
        "uid": 5769,
        "lat": 47.3768866,
        "lon": 8.541694,
        "aqi": 34,
        "recorded_at": "2024-02-24T07:00:00Z",
        "station_name": "Zurich",
        "city": "Zurich",
        "country": "Switzerland",
        "image_filepath": "images\\_Generic.jpg",
        "auto_generated": 0,
        "income_group": "High income",
        "lending_category": null
    },
    {
        "uid": 3088,
        "lat": 48.8386,
        "lon": 2.41278,
        "aqi": 85,
        "recorded_at": "2024-03-07T11:00:00Z",
        "station_name": "Boulevard Peripherique Est, Paris",
        "city": "Paris",
        "country": "France",
        "image_filepath": "images\\_Generic.jpg",
        "auto_generated": 0,
        "income_group": "High income",
        "lending_category": null
    },
    {
        "uid": -460171,
        "lat": 40.823833,
        "lon": -73.953476,
        "aqi": 467,
        "recorded_at": "2024-03-08T02:14:23Z",
        "station_name": "WE ACT Community Sensor #8",
        "city": "New York",
        "country": "United States",
        "image_filepath": "images\\_Generic.jpg",
        "auto_generated": 0,
        "income_group": "High income",
        "lending_category": null
    },
    {
        "uid": 4919,
        "lat": 61.4991,
        "lon": 23.80221,
        "aqi": 24,
        "recorded_at": "2024-03-08T01:00:00Z",
        "station_name": "Kaleva, Tampere, Finland",
        "city": "Tampere",
        "country": "Finland",
        "image_filepath": "images\\_Generic.jpg",
        "auto_generated": 0,
        "income_group": "High income",
        "lending_category": null
    }
]